%time,field.roll,field.pitch,field.yaw,field.rolld,field.pitchd,field.yawd,field.rolldd,field.pitchdd,field.yawdd
1494497496101753678,0.00218006689771,-0.00302236023988,-0.259166076298,0.411182949249,0.00457605998488,1.78891170127,-0.687714640695,-0.0294941415446,-0.424861477912
1494497496151526139,0.0190568971001,-0.00280573725592,-0.343230912856,0.719925658901,0.00787490378791,3.3119638573,-1.20409520079,-0.0507562242931,-0.786582064506
1494497496203701489,0.0152606932148,0.000718091430565,-0.346566988572,0.457793287619,0.0107305143153,4.60305049311,-0.76567169646,-0.0691615295925,-1.09321149502
1494497496256531601,-0.0387702461083,0.00421850391413,-0.303739065612,-0.54190605467,0.0125220930935,5.66027734678,0.906352581881,-0.0807088166145,-1.3442998876
1494497496303059166,-0.0820325400214,0.00429684646061,-0.243889131375,-1.32901942183,0.0131684453242,6.54921247001,2.22282104798,-0.0848747594212,-1.55541946939
1494497496354439093,-0.11636071834,0.00432776709892,-0.108164422097,-1.95352458973,0.0135784564009,7.35354086177,3.26732288819,-0.0875174093803,-1.74644519134
1494497496402895604,-0.163568530736,0.00435910773014,0.038523866433,-2.56675263954,0.0135002578277,7.96213689214,4.29296344237,-0.0870133950546,-1.89098503013
1494497496450907157,-0.190409054245,0.0043549119118,0.140817059612,-3.05390616313,0.0134396992777,8.45688521483,5.10774093022,-0.0866230762102,-2.00848635981
1494497496501696087,-0.231218663932,0.00435266502698,0.357073699968,-3.48702528576,0.0132598691941,8.96890443242,5.83214441617,-0.085464014931,-2.13008947826
1494497496551786046,-0.250175110775,0.00434363751193,0.494020903593,-3.83045587016,0.013137782274,9.36561909158,6.4065413881,-0.0846771264481,-2.22430808965
1494497496601616335,-0.241863713948,0.00091731670037,0.729703637094,-3.54854313761,0.0125066688363,9.74861784661,5.93503469278,-0.08060940244,-5.31560804245
1494497496651477704,-0.229245458092,0.000892810634829,0.872507616462,-3.31838561513,0.0125819397378,9.87854077509,5.55008999075,-0.0810945470033,-5.34646437112
1494497496701851708,-0.182821928097,0.000909911566975,0.901037362091,-2.58855670697,0.0128457267566,9.92159234805,4.32943133683,-0.0827947370566,-5.35668899813
1494497496751427425,-0.150463084053,0.000923061681187,0.918121620056,-2.0004083153,0.0130219341232,9.95194724586,3.34573719147,-0.0839304487885,-5.36389820065
1494497496804739512,-0.0801292773225,0.000942475618168,0.756077299006,-1.01494510044,0.0133067777744,9.86271083079,1.69752322256,-0.0857663554408,-5.34270480404
1494497496850949648,-0.0365187873376,0.000956674988749,0.664775573822,-0.222933058637,0.0134969317855,9.8256912926,0.372861590199,-0.0869919576701,-5.33391276825
1494497496903295969,0.00220378228434,0.00431971556666,0.468803704107,0.0473272021809,0.0141495139521,9.70738143004,-0.0791560299433,-0.0911980543676,-5.30581450995
1494497496951531573,0.00799360426091,0.0211678339638,0.312421193897,-0.100926530727,0.0166038453123,9.5053089641,0.168802361436,-0.107016989604,-5.25782286986
1494497497001619786,0.00123519089056,0.0212558716176,0.219263203655,-0.225048261196,0.0157936804262,9.36231973857,0.376399323877,-0.101795222864,-5.22386333253
1494497497051185656,-0.00428389600728,0.021215189442,0.162772074524,-0.32545796054,0.0152317932841,9.25612316831,0.5443372708,-0.098173684039,-5.19864194695
1494497497102054345,-0.0392727168748,0.0612683906737,0.097482854606,-0.912238810069,0.0207839199788,9.00248986271,1.52574416483,-0.133958881599,-5.13840475303
1494497497152569638,-0.0653282909569,0.0614635572067,0.051258526362,-1.38601704049,0.0186664351778,8.78649615874,2.3181511119,-0.120311028065,-5.08710685821
1494497497201899304,-0.0861353831177,0.10463609546,-0.0111357794371,-1.70205844483,0.0236604849069,8.39055014389,2.84673893692,-0.152499244582,-4.99307079767
1494497497250955054,-0.100145561255,0.104796946538,-0.0619558958795,-1.95664565732,0.0207069496964,8.04238667641,3.27254295843,-0.133462783994,-4.91038295721
1494497497304167267,-0.120654542282,0.112382039515,-0.160860017941,-2.27264342274,0.0197734203863,7.54567760312,3.80105779618,-0.127445894858,-4.7924159548
1494497497353416058,-0.134666416361,0.112319768566,-0.230613016564,-2.52728633837,0.0180274182261,7.11752964394,4.2269549827,-0.116192363431,-4.69073202341
1494497497404137732,-0.144506793124,0.113351383465,-0.292325286607,-2.64335910374,0.0168377211397,6.63448504661,4.42108983258,-0.108524392649,-4.57601029546
1494497497453030821,-0.149625969464,0.113289787091,-0.337472557528,-2.73619737954,0.0158801534763,6.21100144491,4.57636436817,-0.102352568788,-4.4754341358
1494497497502709764,-0.166251883634,0.113608663193,-0.386725319989,-2.91788230158,0.0151005923267,5.75539533741,4.88023733057,-0.0973280527271,-4.36722897171
1494497497551344859,-0.174250102259,0.113569036105,-0.433052182127,-3.06282952573,0.0145255565636,5.34835265603,5.12266549632,-0.093621766917,-4.2705574842
1494497497614365024,-0.148224312781,0.103359602372,-0.470453199339,-2.63815230215,0.0125535890014,4.7658157446,4.41238131562,-0.0809118176169,-4.13220661258
1494497497651238428,-0.129374862835,0.103282022566,-0.515871887353,-2.29546486065,0.0127160794481,4.23833667195,3.83922727037,-0.0819591194991,-4.0069318222
1494497497701501733,-0.114095906831,0.0918544260362,-0.628234249885,-2.01827442292,0.0112175722597,3.60623487178,3.37561874128,-0.0723007707741,-3.85680942945
1494497497752603692,-0.101772202627,0.0918030208498,-0.716307391438,-1.79408277436,0.0118796962206,3.05350026974,3.00065212528,-0.0765683673284,-3.72553652216
1494497497804176731,-0.0788855823354,0.0799043667522,-0.829521276642,-1.43446579183,0.0108021576589,2.41143600666,2.39918296325,-0.0696232934081,-3.5730480726
1494497497850890423,-0.0629340313702,0.079874975246,-0.918488035031,-1.14453421702,0.0118186762963,1.84971942666,1.91426453665,-0.0761750747814,-3.4396419709
1494497497903396122,-0.0692582107196,0.0794249048958,-1.01911299255,-1.51058734407,0.0127976897129,1.2960349752,2.52649832504,-0.0824851232464,-3.30814347706
1494497497953136525,-0.0856989840696,0.0794747726995,-1.09745321146,-1.81084050442,0.0135271318537,0.81244740614,3.02867988357,-0.0871866065795,-3.19329279485
1494497498004841145,-0.11040860284,0.0849789869032,-1.1938050278,-2.27178356559,0.0149256317091,0.142169721858,3.79961966176,-0.0962003766835,-3.03410373742
1494497498051069021,-0.130910206559,0.0850375771771,-1.27488347609,-2.64480543305,0.015065261361,-0.450225534742,4.4235088576,-0.0971003335745,-2.89341153666
1494497498104500327,-0.174981168144,0.0904773934148,-1.352603862,-3.20965873318,0.0155602275399,-0.988973395035,5.36824133022,-0.100290545807,-2.76546044103
1494497498151725955,-0.199938892672,0.0904909474793,-1.41792170219,-3.66260016461,0.0150970806886,-1.46505033302,6.12579816555,-0.0973054191183,-2.65239351251
1494497498205081203,-0.193302654659,0.0769735191943,-1.45031121406,-3.27406578738,0.0124727963855,-2.03728614403,5.47596387615,-0.080391083873,-2.51648912315
1494497498251801949,-0.175851249953,0.0768701339714,-1.49258304265,-2.95534940368,0.0126788747348,-2.55668458171,4.94290207556,-0.0817193234556,-2.39313346076
1494497498305873769,-0.122793225866,0.0676865123381,-1.55092131571,-2.16712824806,0.0115766375696,-3.03235018032,3.6245808032,-0.0746150592909,-2.28016422417
1494497498355170401,-0.0878647975842,0.0676503012207,-1.62807107439,-1.53252128622,0.0121778695905,-3.47040537056,2.56318343849,-0.0784901881969,-2.17612735337
1494497498402242379,-0.00913645103315,0.0628937070377,-1.75143054431,-0.623994507457,0.0122348331934,-4.06478267246,1.04364774676,-0.0788573364804,-2.03496442245
1494497498451891430,0.0309121408933,0.0629063391643,-1.84381927432,0.102157972092,0.0129716717899,-4.57972993493,-0.170861980537,-0.0836064922892,-1.91266590161
1494497498502000875,0.0413703796828,0.0670341283501,-1.96224871657,-0.0907678953568,0.0143102288239,-5.05734075679,0.151811768109,-0.0922339121127,-1.79923467999
1494497498551693646,0.032539826628,0.06709255336,-2.04691914896,-0.253185053907,0.0146112927147,-5.4658438486,0.423458873222,-0.0941743632956,-1.70221634913
1494497498604286647,-0.0168181163529,0.0654886251885,-2.15719838755,-1.25585921116,0.0144106449306,-6.03058113943,2.10045861032,-0.0928811254087,-1.56809283714
1494497498651057748,-0.0614672984668,0.0654818939037,-2.24123598287,-2.06860955233,0.0145101343533,-6.52174634595,3.45980561114,-0.0935223659356,-1.45144248743
1494497498705563912,-0.153857230684,0.0591473852586,-2.32814591527,-3.33763462796,0.0135600211528,-6.93983495261,5.58228448707,-0.0873985884257,-1.35214762386
1494497498752609699,-0.21000787803,0.059112918284,-2.39320747266,-4.35723598665,0.0138460983747,-7.30201515377,7.2875954279,-0.0892424458276,-1.26613084873
1494497498801884819,-0.263527809191,0.0517806349484,-2.53195369138,-4.638730535,0.012954950776,-7.75930450233,7.7584026988,-0.0834987201116,-1.15752591964
1494497498851911921,-0.275586672348,0.0517511681827,-2.6267233416,-4.85491043957,0.0134274503047,-8.14348881643,8.11996945557,-0.0865441277386,-1.06628322982
1494497498904646421,-0.225049197071,0.0477659060764,-3.0900495797,-3.91155239262,0.0133857630591,-8.6467077287,6.54217752259,-0.0862754403683,-0.946770159034
1494497498951735020,-0.183090577434,0.0477720198824,-3.36220362339,-3.1481224016,0.0139425292888,-8.98447420076,5.26532014578,-0.0898639733076,-0.866551575632
1494497499004591672,-0.0582588254981,0.047790701526,-3.18710555624,-1.45694313308,0.014338283499,-9.16153218969,2.43677692645,-0.0924147332911,-0.824500803198
1494497499051964596,0.0165504146576,0.0478104473012,-3.10015028278,-0.0986772693901,0.01460370215,-9.37289886379,0.165040410813,-0.094125439726,-0.774301814912
1494497499103091628,0.0875320933323,0.0410790496797,-2.99790856023,0.578202731995,0.0137511533545,-9.52604044503,-0.967059759674,-0.0886304954002,-0.737931121774
1494497499150742380,0.117221538461,0.0410502764728,-2.94928810155,1.11548057113,0.0141616007058,-9.69539201893,-1.86567152548,-0.0912759572854,-0.697710601152
1494497499203958784,0.11500787562,0.0449100822393,-2.93971542961,0.611969236764,0.0147645267715,-10.0230340558,-1.0235351552,-0.0951620048421,-0.619896542518
1494497499250881092,0.0923155046108,0.0449322834687,-2.94872477806,0.197005423136,0.0146064693267,-10.3281194122,-0.329496916238,-0.0941432750472,-0.547439631806
1494497499301914327,-0.0162005794746,0.0410573523813,-2.99165076543,-1.42677668551,0.0138605304875,-10.6068502588,2.38632272427,-0.08933546532,-0.481241842752
1494497499354299550,-0.0881646457153,0.0410280328938,-3.05463457734,-2.73434236141,0.0139239035251,-10.8689218922,4.57326180001,-0.0897439244199,-0.419000569804
1494497499409069574,-0.181478460697,0.0347471015409,-3.20604924033,-3.77114121111,0.0131611168901,-11.278686551,6.30733601125,-0.0848275253659,-0.32168262035
1494497499452685805,-0.227139733959,0.0347218890246,-3.30560754002,-4.59876750175,0.01356626079,-11.6155316035,7.69156344124,-0.0874388048436,-0.241682871495
1494497499503221910,-0.234355207202,0.0309789889633,-3.77730646372,-4.52584137978,0.0135695843822,-12.1454673835,7.56959252328,-0.0874602264381,-0.115824620065
1494497499551458351,-0.230978091234,0.0309868543666,-4.05514142304,-4.4634610167,0.014121272385,-12.5056069376,7.46525967324,-0.0910160286119,-0.0302924928511
1494497499604171828,-0.154356638023,0.0415614737864,-4.30830448425,-3.2907339966,0.016197926437,-13.003104547,5.5038419084,-0.104400715165,0.087861784656
1494497499653076231,-0.102361770923,0.0416435357917,-4.46664309129,-2.34585511265,0.0160527638805,-13.3930986795,3.92350633426,-0.103465096969,0.180484289964
1494497499702951079,-0.0391402787656,0.0382211453998,-4.24664229749,-1.49924256768,0.0152278925737,-13.4477134371,2.50752387868,-0.0981485427376,0.193455140683
1494497499750942447,-0.00169917459465,0.038186949099,-4.13012247496,-0.819508885174,0.015171351038,-13.5583326214,1.37065084908,-0.0977841148096,0.219726884596
1494497499803328299,0.0271227199296,0.0447706706298,-3.98306010793,-0.35512410647,0.0159094632425,-13.733917853,0.593954704905,-0.102541479422,0.261427881319
1494497499850607077,0.047730253626,0.044794026795,-3.91119099165,0.0194951820166,0.0154431522395,-13.9362532139,-0.0326062209542,-0.0995359587839,0.309481958243
1494497499907034643,0.0435281848395,0.0407308600205,-3.85838466293,-0.113074472865,0.0144974031838,-14.0041913086,0.189120124315,-0.0934403095557,0.325617063886
1494497499950616372,0.0375969490146,0.0406919389988,-3.83278996878,-0.221235910953,0.0144530177551,-14.081358945,0.370023064642,-0.0931542315495,0.343944159653
1494497500006726650,0.0373538415084,0.037384182082,-3.86785953837,-0.285000181789,0.0140964161872,-14.3330488593,0.476670537957,-0.0908558226228,0.403719803618
1494497500051169383,0.0344796509766,0.0373731593145,-3.89770498622,-0.337562124369,0.0143403442794,-14.5558023859,0.56458181327,-0.0924280156668,0.456623137245
1494497500102184320,0.0214056442114,0.0410838096009,-3.94325084165,-0.65162811585,0.0150490407884,-14.7101752105,1.08986570668,-0.0969957868975,0.493286247198
1494497500151622450,0.00739160834828,0.0411116052323,-3.97454501614,-0.90692623496,0.0149845480061,-14.8402227969,1.5168587388,-0.096580110692,0.524172181759
1494497500203708543,-0.00811786670951,0.0451768241325,-4.08073629328,-1.20859010008,0.0154153118877,-15.1478401524,2.02139973932,-0.0993565189861,0.597230435114
1494497500251370051,-0.0215430704542,0.0451899962374,-4.15143529541,-1.45291411813,0.0151104447836,-15.4027618829,2.43003828961,-0.0973915549013,0.657773626317
1494497500304873083,-0.0634335513658,0.0384025873859,-4.27984445336,-1.9773418808,0.0138476786116,-15.6262550757,3.30715795382,-0.0892526309497,0.710852628542
1494497500351630915,-0.0865934092927,0.0383534221618,-4.3589081617,-2.3975726773,0.0139883869111,-15.7974370718,4.01000536457,-0.090159540063,0.751507869288
1494497500402531242,-0.0861048528569,0.0383836948825,-4.58161028023,-2.06535361796,0.0141012462024,-16.1646034819,3.45435997256,-0.0908869535854,0.83870885495
1494497500450963798,-0.0711206553641,0.0383892745752,-4.71784694654,-1.79126465734,0.0141732752157,-16.4426164555,2.9959387481,-0.0913512031625,0.904736151198
1494497500502583072,-0.0299778447587,0.0306733301584,-4.78205026109,-1.1986344117,0.0131733207897,-16.4632637719,2.00474858034,-0.0849061833255,0.909639830536
1494497500550891519,-0.00373164627617,0.0306392132173,-4.8176381336,-0.721878437057,0.0136284125892,-16.4647559385,1.20736127525,-0.0878393926791,0.909994215879
1494497500605384133,0.0504425726134,0.0300731182083,-4.75027588259,-0.187772007444,0.0142286322069,-16.5724648049,0.314053777929,-0.0917079963296,0.935574767526
1494497500653936117,0.0738916868967,0.0301042883445,-4.71853697683,0.236733438874,0.014718437372,-16.6903302962,-0.395943100639,-0.0948649442099,0.963567488917
1494497500702479651,0.0428420510086,0.0444603195738,-4.61203152914,-0.387461244484,0.0171728674478,-16.6662330076,0.64803944575,-0.110684515698,0.957844450908
1494497500751665025,0.015050473706,0.0445534885599,-4.55343512744,-0.89332503452,0.0167285947184,-16.6731315265,1.49411036197,-0.107821038644,0.959482829675
1494497500803695664,-0.0354545816112,0.0535081328859,-4.68761793775,-1.48975910915,0.0173627482482,-16.9373705057,2.49166253694,-0.111908356999,1.02223884113
1494497500856507059,-0.0617600276142,0.0535214149821,-4.7715653189,-1.96682373927,0.0164779577115,-17.1445874642,3.28956607668,-0.106205604541,1.07145228368
1494497500904456592,-0.060742058868,0.0460020392317,-4.99272427988,-1.93010402783,0.0144497692733,-17.302489302,3.22815136285,-0.093133294066,1.1089535243
1494497500951382881,-0.0590974478827,0.0459161153535,-5.11906888714,-1.90010087491,0.0141792798832,-17.3877399405,3.17797027541,-0.0913899051276,1.12920031024
1494497501002768186,-0.0274795637314,0.0373504475333,-5.24027781974,-1.45980189465,0.0129975908428,-17.6075088728,2.44155828274,-0.0837735487129,1.18139481113
1494497501052065796,-0.00799236905817,0.0373089933773,-5.31528946847,-1.10591024971,0.0134542746589,-17.7772230527,1.8496649032,-0.0867170191126,1.22170144966
1494497501103211476,-0.0157383638555,0.0337225386116,-5.28469113054,-1.12633778716,0.0134621650797,-17.662403632,1.88383051392,-0.0867678753489,1.19443216143
1494497501151948888,-0.016567091615,0.0337303105034,-5.26318638199,-1.14085758658,0.0139939822826,-17.5647799107,1.90811527246,-0.0901956039868,1.17124680329
1494497501202201159,-0.011811261236,0.0407128316929,-5.3104496018,-0.998920209627,0.0154481999297,-17.5607926801,1.67072115782,-0.0995684927302,1.17029984727
1494497501252061829,-0.00546399165208,0.0407711664426,-5.33581707452,-0.883193468668,0.0154085768042,-17.5441787168,1.47716504315,-0.0993131092616,1.1663540779
1494497501304059433,0.0213812790637,0.0479780991685,-5.34228562112,-0.581845748236,0.0163325035159,-17.4235173487,0.973152803196,-0.105268106639,1.13769734367
1494497501354214763,0.0346561422625,0.0480094624493,-5.28628115805,-0.341210820132,0.015900615685,-17.2780431908,0.570684355946,-0.10248445414,1.10314764194
1494497501406081415,0.0573598246533,0.0512775931622,-5.266612479,-0.232447150935,0.0159609248246,-17.3063073933,0.388774167746,-0.102873165456,1.10986031022
1494497501451661931,0.0619948153557,0.0512738854458,-5.25720736962,-0.14953200616,0.0155220474104,-17.3377819036,0.250096338082,-0.1000444629,1.11733541754
1494497501504085497,0.026661033818,0.0448476042042,-5.24126708806,-0.818663635321,0.0142386527379,-17.3865233306,1.36923714576,-0.0917725817939,1.12891136882
1494497501551990262,-0.0031067170072,0.044796664888,-5.23476309881,-1.36032591174,0.0143123718399,-17.4358813487,2.2751820019,-0.0922477245227,1.14063375876
1494497501607406946,-0.0518901287578,0.0485362336312,-5.44690861221,-1.95341666135,0.0148548799403,-17.7261892465,3.26714237505,-0.0957443593474,1.20958106478
1494497501653567355,-0.0780653872762,0.0485556618287,-5.57411383182,-2.42824213055,0.0146735336899,-17.9361382552,4.06130085739,-0.0945755258978,1.25944336154
1494497501706433645,-0.110480883306,0.0448910496657,-5.79701906394,-2.703850881,0.014081392376,-18.0687293253,4.52226397159,-0.0907589894488,1.2909333663
1494497501751839629,-0.122527512558,0.0448689860595,-5.92321172494,-2.92155455052,0.0142181042276,-18.130136235,4.88637926658,-0.0916401402015,1.30551733398
1494497501802990128,-0.0843940434678,0.0412352248365,-6.08522304593,-2.20228717755,0.013905022193,-18.3346000516,3.68338506688,-0.0896222283134,1.35407691308
1494497501851011248,-0.0523977245108,0.0412270482604,-6.18162096534,-1.62008604208,0.0142262944315,-18.4790199962,2.70963786888,-0.0916929286342,1.38837624215
1494497501903138687,-0.00697509049686,0.0476226616375,-6.19610477234,-1.02705467428,0.0155524820713,-18.4623035667,1.71777681343,-0.100240623833,1.38440613735
1494497501953008297,0.0192378316918,0.0476758033076,-6.20320793822,-0.551261871143,0.0155122611268,-18.4429082833,0.922000438818,-0.0999813872334,1.37979981229
1494497502002571653,0.0412569109537,0.0476527330203,-6.1411055638,-0.273513351374,0.0154050422175,-18.4452690098,0.457458502374,-0.0992903277419,1.38036047817
1494497502053099726,0.0535248881731,0.0476474204811,-6.10764891555,-0.0508993282517,0.0153357778227,-18.4644420381,0.0851305077318,-0.0988438969973,1.38491401826
1494497502104892695,0.0384490200202,0.0546491593081,-6.05867513896,-0.280818612468,0.0161016389525,-18.3291344816,0.469676749794,-0.103780112135,1.35277885564
1494497502150971390,0.0282557997521,0.0546730428002,-6.02635384099,-0.466050795213,0.0155927679707,-18.2176251977,0.779482601993,-0.100500279088,1.32629571557
1494497502206889813,0.0131464483536,0.0476433776811,-6.10529427874,-0.676065808713,0.0141907535907,-18.2630573303,1.13073841115,-0.0914638567701,1.33708571878
1494497502251402527,0.00385173097863,0.0475877496086,-6.14991861545,-0.844857496789,0.0142726698347,-18.2833971705,1.41304708988,-0.09199183265,1.3419163734
1494497502304356398,-0.00921769630095,0.0509357783928,-6.2598164065,-1.02329277807,0.0149436496435,-18.2033329489,1.71148493992,-0.0963165079205,1.32290134685
1494497502353522845,-0.0171119914176,0.0509624344462,-6.31573725364,-1.16663326471,0.0149068309469,-18.0993484476,1.9512257936,-0.0960791998755,1.2982053214
1494497502409709599,-0.00212373012591,0.0516279718244,-6.39891687726,-0.958651957598,0.0150172011304,-18.0832307983,1.60337141356,-0.0967905703179,1.29437742518
1494497502455045392,0.0070806779218,0.0516321203261,-6.43227372164,-0.791502412611,0.0149942903812,-18.0391044744,1.32380926372,-0.0966429033551,1.28389754785
1494497502503803758,0.0142948329254,0.0557103367352,-6.47323862803,-0.799487874958,0.0154375648453,-17.9095350339,1.33716516619,-0.099499946276,1.25312517159
1494497502553161850,0.0138479214554,0.0557241075221,-6.48976670591,-0.808261304193,0.0151392668885,-17.7787121155,1.35183896466,-0.0975773224055,1.22205509786
1494497502602586361,0.0160769573334,0.0481990995121,-6.54858453765,-0.877197861882,0.0136414819307,-17.8145236312,1.4671372281,-0.0879236286829,1.23056023172
1494497502650907869,0.0129397121512,0.0481397026939,-6.58191860041,-0.934776984489,0.0137312179807,-17.8314884585,1.56343987315,-0.0885020056648,1.2345893303
1494497502704304673,-0.0226219434835,0.0472413922267,-6.66400683145,-1.38925511068,0.0137375661024,-17.7964803426,2.32356687216,-0.0885429212996,1.22627500164
1494497502750868276,-0.0427015743149,0.047243557427,-6.70685025584,-1.75365855014,0.0138737343073,-17.7416996304,2.93304151331,-0.0894205680792,1.21326473717
1494497502811297120,-0.060902994049,0.0441276432112,-6.77062289548,-1.84326165864,0.0137431522943,-17.7873072897,3.08290514379,-0.0885789260582,1.22409642747
1494497502851827623,-0.0647274862593,0.0441275247928,-6.80705846676,-1.9117218993,0.0141120686765,-17.8119596872,3.19740675406,-0.0909567078244,1.22995130226
1494497502902466674,-0.0591803860294,0.0511304229743,-6.84903235615,-1.74983943106,0.0154957872308,-17.7062985065,2.926653933,-0.0998752078079,1.20485707019
1494497502951496582,-0.051942672087,0.051185191478,-6.86714055386,-1.61788791754,0.0154054030605,-17.5972706302,2.70596144594,-0.0992926534879,1.17896325741
1494497503003345075,-0.0113135081609,0.051163127012,-6.90795791451,-1.0490637891,0.0153888419559,-17.6196445229,1.75458765522,-0.0991859119755,1.18427699377
1494497503052474786,0.0138646999335,0.0511623444908,-6.9309832391,-0.59180370381,0.0153808591722,-17.6291299302,0.989807754117,-0.0991344604316,1.18652975122
1494497503105363216,0.0144566327567,0.0548320057596,-7.00329586371,-0.719815750604,0.0157681019421,-17.5359042492,1.20391137618,-0.101630361514,1.1643889152
1494497503151827225,0.00867349327895,0.054843815868,-7.03833676377,-0.825664803296,0.0154918107167,-17.4300544291,1.38094678918,-0.0998495779274,1.1392498818
1494497503202458244,-0.0151558108521,0.0591547280712,-7.0913223414,-1.22112236458,0.0156392978856,-17.4036692567,2.04236029178,-0.10080017898,1.13298347787
1494497503252789715,-0.0327132097741,0.0591532334523,-7.11881254636,-1.54035417346,0.0151064175975,-17.3648125513,2.57628415496,-0.0973655984242,1.12375512003
1494497503302880512,-0.0579630672442,0.0514441452358,-7.12597817765,-1.86447700871,0.0135648595327,-17.2233420162,3.11838839249,-0.0874297733011,1.09015626741
1494497503355831170,-0.0722847182743,0.0513829388083,-7.11799368629,-2.12439457788,0.0136519570551,-17.0873681256,3.55310758019,-0.0879911441448,1.05786285232
1494497503403404887,-0.0838405453797,0.0513874188161,-7.09880624162,-2.33461751761,0.0137199586337,-16.9586768526,3.9047111516,-0.0884294356422,1.02729903836
1494497503453361798,-0.0751033487583,0.0438082040986,-7.1213860643,-2.21302379887,0.0128825960923,-16.9960902155,3.70134235738,-0.0830323714862,1.03618460642
1494497503502991853,-0.0539618900399,0.0472461073902,-7.18834515458,-1.82435698224,0.0141632797209,-17.1201026809,3.0512865595,-0.091286779064,1.06563721679
1494497503551854840,-0.0366786313236,0.0473030583577,-7.22989642652,-1.50991787955,0.014526400127,-17.2162632894,2.52537862746,-0.0936272039472,1.08847508978
1494497503604520336,-0.0135596658056,0.0509729146819,-7.32776318069,-1.02923846743,0.0154165164754,-17.442778954,1.72142926672,-0.0993642829319,1.14227192053
1494497503651552225,0.00785155674361,0.0510098636121,-7.39045323792,-0.639443800651,0.0154809411551,-17.6251088011,1.06948710887,-0.0997795201944,1.18557474441
1494497503701868051,0.0291749233493,0.0563352316552,-7.50883551128,-0.407936050938,0.0161468286837,-17.6999503637,0.682284115159,-0.104071374123,1.20334940421
1494497503751164403,0.0393648213389,0.056357565696,-7.57604640574,-0.223281979716,0.0158162975849,-17.7366469341,0.373445170172,-0.101940997544,1.21206473605
1494497503804056325,0.0603979352669,0.0521084410946,-7.72028999716,-0.137189788179,0.0146166272031,-17.9404248212,0.229453643583,-0.0942087457458,1.26046140886
1494497503851470594,0.0640300194516,0.0520572087771,-7.80705691338,-0.0724840511393,0.0144274835232,-18.0890735071,0.121231542496,-0.092989655418,1.29576505203
1494497503902797582,0.0166902639908,0.0474094372237,-7.93982473255,-0.799940243423,0.0137378984258,-18.1462107541,1.33792176472,-0.0885450632279,1.30933498686
1494497503951890138,-0.0155650298501,0.047384524679,-8.01404293322,-1.38611687447,0.0139529049519,-18.1626269526,2.31831808695,-0.0899308477096,1.31323378765
1494497504002180332,-0.0774811685025,0.0404161172029,-7.92829426544,-2.15270304494,0.0132042171469,-18.1065077883,3.60045425955,-0.0851053200357,1.2999056446
1494497504051252354,-0.111327070753,0.0403930236614,-7.87952830662,-2.76677215378,0.0137198318363,-18.0781651168,4.62750150777,-0.0884286183937,1.29317434014
1494497504102720422,-0.142968750831,0.0473275730582,-7.74618971245,-3.10372595944,0.0152228694525,-17.9200726581,5.1910658915,-0.0981161671464,1.25562782758
1494497504151643542,-0.157792620371,0.0473884470532,-7.66729315728,-3.37230211636,0.0152233684659,-17.8106148707,5.64026680217,-0.0981193834438,1.22963191213
1494497504204618505,-0.103544222027,0.0556353897142,-7.60649972056,-2.3711631232,0.0165058179997,-17.8999738797,3.96583466867,-0.106385172835,1.25085442447
1494497504250973562,-0.0590230134845,0.0556825366289,-7.5775161788,-1.56115896343,0.0161641959724,-17.9991020324,2.61108073077,-0.104183311744,1.27439708084
1494497504303269877,0.00643650404308,0.0562062358197,-7.68813239724,-0.490209932152,0.0158322893384,-18.0309441765,0.819889414117,-0.102044069411,1.28195950015
1494497504352181334,0.0539730334238,0.0561885661647,-7.85344368652,0.374029868304,0.015530515124,-18.0920822599,-0.625575104608,-0.100099039969,1.29647962233
1494497504404402430,0.127278825167,0.0546119888772,-8.09720840138,1.18187189076,0.0150100516291,-18.2759620567,-1.97671280919,-0.0967444895399,1.34015055487
1494497504453563640,0.162849511174,0.054589213379,-2.59603309776,1.82655203849,0.0148888206283,-15.0206625195,-3.05495785064,-0.0959631177244,0.567026106399
1494497504504476190,0.135171591437,0.0532835873724,0.451247438116,0.962596843711,0.014591996242,-13.4018276874,-1.60996934264,-0.0940499914781,0.182557404678
1494497504551704821,0.0965213014344,0.0532714344935,2.16800702397,0.257798399418,0.0145825278738,-12.7412429197,-0.431174818778,-0.0939889648758,0.0256703875733
1494497504600823986,0.0651840392273,0.0532709861578,3.12430215842,-0.312302781699,0.0145778961283,-12.6011920208,0.522334877203,-0.093959111824,-0.00759130546648
1494497504652809089,-0.0399924933469,0.0571686640107,3.80093183847,-1.84827438026,0.0150421960103,-12.6816430466,3.09128905673,-0.0969516701563,0.0115155860017
1494497504702735270,-0.109508831663,0.0481221700878,-1.44000527631,-2.57049040772,0.0135815462274,-16.2616833259,4.29921496108,-0.0875373242808,0.861765043788
1494497504751397743,-0.141261474501,0.0480677594396,-4.42706354151,-3.14563489645,0.0139197901605,-18.1325013491,5.2611597259,-0.089717412495,1.3060790419
1494497504804631817,-0.0923342638506,0.0550103566115,-6.04719906814,-2.22448106414,0.0154271702082,-19.2444616153,3.72050494446,-0.0994329495803,1.57016646541
1494497504852540074,-0.0513581912402,0.0550714311351,-6.97081868247,-1.4788930063,0.0154294302641,-19.827644371,2.47348868505,-0.0994475163494,1.70867072321
1494497504901940211,0.012080458644,0.0514863899239,-7.6722324072,-0.683408837825,0.0149106344007,-20.1943061925,1.1430198266,-0.0961037143283,1.79575187051
1494497504950594023,0.0472119916394,0.0514678292606,-8.06713304694,-0.0459457436666,0.0150853641977,-20.3408586515,0.0768455030902,-0.0972299026609,1.83055766572
1494497505004658371,0.0796563130986,0.0514450778894,-2.73201438793,0.421667021927,0.014994580338,-17.1798330156,-0.70524953675,-0.0966447722172,1.07982300263
1494497505050813122,0.100366012954,0.0514405863011,0.287800276065,0.797855436569,0.0149364054327,-15.721604244,-1.33443486868,-0.0962698167104,0.733497786798
1494497505103094282,0.117091416336,0.0514376873106,1.9827659251,1.10212456939,0.0148976457565,-15.2017687434,-1.84333325013,-0.0960199984435,0.610038323192
1494497505153208127,0.102574384011,0.0510725581363,2.8137453086,0.709255431148,0.0147080495059,-15.0880921889,-1.18624895532,-0.094797991155,0.583040462488
1494497505203896346,0.0533237249101,0.0509405791323,3.25435652644,0.0489210078615,0.0146980377059,-15.2245866611,-0.0818217131944,-0.0947334619646,0.615457514218
1494497505251825276,0.024119972254,0.0509403501156,3.48654542016,-0.481270761505,0.0147106275119,-15.4711617517,0.804938408633,-0.0948146072123,0.67401840203
1494497505303951737,-0.00597057102387,0.0540970624973,3.68369133578,-1.02832409698,0.0152644500118,-15.5578301396,1.71989995733,-0.0983841668895,0.69460189942
1494497505354016414,-0.030292965201,0.0541182552668,3.78647339221,-1.47080010016,0.015176330263,-15.6917859274,2.45995307992,-0.0978162074763,0.726416020792
1494497505405719776,-0.0499659649956,0.054113806466,3.909668384,-1.82869508159,0.0151135098013,-15.7998433209,3.05854214838,-0.0974113099019,0.75207934665
1494497505461577438,-0.0560061737868,0.0549995951254,3.96151144332,-1.94975155678,0.0151258115625,-16.0033094265,3.26101238819,-0.0974905986102,0.800401972229
1494497505502565472,-0.0613958580474,0.0549983880117,3.9807191785,-2.04785333361,0.0150041185504,-16.2053274619,3.42509027209,-0.0967062489871,0.848380685225
1494497505551747843,-0.0717005568552,0.0585783746464,3.97263724688,-2.05295014337,0.0153711652911,-16.3784760894,3.43361482471,-0.0990719803278,0.889502995343
1494497505601888437,-0.0718068316912,0.0585893595955,3.96077507489,-2.05404110216,0.0150943530552,-16.5361083715,3.4354394829,-0.097287838666,0.926940217249
1494497505654411038,-0.0405158292656,0.0550112159854,3.91477298702,-1.46861690958,0.0144106703477,-16.7741015326,2.45630163444,-0.0928812892297,0.983462921029
1494497505702888502,-0.0144765133587,0.0549843982524,3.87961270708,-0.994829971015,0.0144726611435,-16.9812191945,1.66388012275,-0.0932808393472,1.03265278091
1494497505753826194,0.0190772260438,0.0547815161352,3.73877136476,-0.56315298423,0.0144884196343,-17.1537925342,0.941888648139,-0.0933824077623,1.07363846183
1494497505801490985,0.0260380731463,0.0610797760668,3.57175085098,-0.497867032386,0.0153477097022,-17.3699700741,0.832696122045,-0.0989208017022,1.12498001715
1494497505850687394,0.028900283204,0.0611097772542,3.47213903076,-0.446080538177,0.0150054122952,-17.5238329391,0.746081805176,-0.0967145875779,1.16152201315
1494497505902583728,0.0312025843494,0.0610926037036,3.41165080517,-0.404197942762,0.0147690693413,-17.6386151347,0.676032027796,-0.095191283129,1.18878246049
1494497505952022697,0.0153972792653,0.0542386560663,3.34209860565,-0.634994730449,0.0135745692047,-17.6159344812,1.06204591823,-0.0874923551817,1.18339586934
1494497506001725037,0.00517322136503,0.0541930404113,3.30549578932,-0.820730672412,0.0137713017236,-17.5759643458,1.37269432139,-0.088760357957,1.17390307502
1494497506054279345,0.0210309710026,0.0536529309686,3.27833457399,-0.69541327449,0.0138929121325,-17.622878214,1.16309757268,-0.0895441751763,1.18504498628
1494497506103376790,0.0264950619082,0.0536601214322,3.26162651623,-0.596763213914,0.0140545996411,-17.6587548052,0.99810266935,-0.0905863018704,1.19356557538
1494497506152387701,0.0140460955923,0.057315514499,3.20840661106,-0.96029976044,0.014835600638,-17.691348808,1.60612740853,-0.0956200981986,1.20130655901
1494497506201766955,-0.00220760511069,0.0573470383798,3.178236824,-1.25662333694,0.0148282124414,-17.7068751745,2.10173663143,-0.0955724789548,1.20499402722
1494497506252160095,-0.0362954996602,0.0621272077855,3.13442481111,-1.60095406931,0.0154636263523,-17.8264795037,2.67763912525,-0.0996679208613,1.23339971768
1494497506302160867,-0.0514228590935,0.0621491399047,3.10557254868,-1.87487988081,0.0151924784757,-17.9249046676,3.13578747838,-0.0979202877711,1.25677541621
1494497506355144211,-0.069799953148,0.0555440468846,3.10595878852,-2.08933033277,0.0139017331351,-17.8891287056,3.49446167871,-0.0896010293043,1.24827872623
1494497506402703820,-0.0792555757836,0.0554931079211,3.13475867712,-2.26079512354,0.0139967199912,-17.8401073818,3.78124119424,-0.0902132493774,1.23663630025
1494497506452940656,-0.062442586479,0.0507489485295,3.10899922003,-1.92258008309,0.0135939692676,-18.0023576542,3.21556736111,-0.087617394671,1.27517028183
1494497506501744348,-0.0473838039803,0.0507385734344,3.08805622344,-1.64847838697,0.0140174824571,-18.1450917348,2.75712483619,-0.0903470699805,1.30906922295
1494497506552566593,-0.0424522124987,0.0507785835215,3.02792425199,-1.50049485178,0.014495290111,-18.1440910628,2.50961835781,-0.0934266901387,1.30883156618
1494497506601951783,-0.0358342439495,0.0508023873686,2.99547349764,-1.37983034438,0.01481317686,-18.1267127633,2.30780369477,-0.095475569918,1.3047042691
1494497506657181432,-0.0153678810943,0.0581730826118,2.92780413877,-1.19721261214,0.0159297756602,-18.1564727712,2.00237058199,-0.102672399323,1.31177218696
1494497506703513511,-0.00737366292439,0.0582137409256,2.88994883838,-1.05265658886,0.0156044020559,-18.165428958,1.76059671032,-0.100575264414,1.31389925604
1494497506753430683,-0.00194856835857,0.0514487309126,2.81483596063,-1.07916065924,0.0142235025221,-18.1986961956,1.80492548725,-0.0916749339023,1.32180013103
1494497506801015156,-0.00320958225414,0.0513936139921,2.77280652418,-1.10267959508,0.014280876247,-18.2088532698,1.84426154566,-0.0920447255503,1.32421240747
1494497506854683573,0.000195736178455,0.0478765654447,2.70354206701,-1.03540839119,0.0137776362898,-18.3805060684,1.73174863165,-0.0888011862225,1.36497946245
1494497506902792344,0.003190203673,0.047858642576,2.65868287629,-0.980907884374,0.013952925761,-18.5200154683,1.64059505505,-0.0899309818306,1.39811255102
1494497506953646367,-0.0293459846329,0.0442453340567,2.60762911762,-1.51972713078,0.0136957290769,-18.5879295764,2.54178486634,-0.0882732685509,1.41424195993
1494497507004365177,-0.0532674906153,0.0442399091811,2.57710101479,-1.95466654305,0.0140518666022,-18.6366547828,3.2692328361,-0.0905686865779,1.42581405888
1494497507053078355,-0.077719901162,0.0512968802447,2.51419178642,-2.09779146742,0.0154909950728,-18.8002561481,3.50861315603,-0.0998443208469,1.46466892118
1494497507103749254,-0.0838843148091,0.0513543075238,2.47311534155,-2.20854193826,0.0154302187909,-18.9340718353,3.69384632389,-0.0994525986519,1.49644976906
1494497507153772305,-0.0834296150112,0.0550751168001,2.39548315929,-2.07734876429,0.0159054128406,-18.9295968857,3.47442218029,-0.102515373312,1.49538698118
1494497507202998956,-0.0523875744773,0.0517050195946,2.30070821343,-1.56364602661,0.0150884210822,-18.9327388838,2.61524041142,-0.0972496052401,1.49613319685
1494497507251130356,-0.0295814150713,0.0516711096328,2.24935779635,-1.14898767308,0.0150295423522,-18.9097052225,1.92171306276,-0.0968701133621,1.49066276733
1494497507301821299,-0.0111453749475,0.0516682359718,2.22260612562,-0.813596780443,0.0149946242141,-18.8743899423,1.36076269348,-0.0966450550127,1.48227548798
1494497507355583932,0.0270204281634,0.0512768745966,2.23916688261,-0.47722823512,0.0148175751759,-18.7285080961,0.798177173553,-0.0955039184431,1.44762896142
1494497507404656164,0.041739574079,0.0512688287551,2.26860824619,-0.211108189762,0.0147550572356,-18.5899267239,0.35308417612,-0.0951009707136,1.41471627682
1494497507457034333,0.0358256352343,0.0510999460332,2.25812484986,-0.32319429095,0.0147172300766,-18.5594483584,0.540551221983,-0.0948571628126,1.40747775107
1494497507504603999,0.0158415479445,0.0480709040905,2.22986372264,-0.700166565944,0.014231425592,-18.5061008047,1.17104758163,-0.0917260005721,1.3948078577
1494497507551861335,-0.000927934324634,0.0480528489974,2.21690118368,-1.0053021882,0.0143468927187,-18.4491191187,1.68139519016,-0.0924702224115,1.38127486817
1494497507603202501,-0.0144946620605,0.0480586584704,2.2123629903,-1.25211099003,0.0144277830296,-18.3929688559,2.09418960876,-0.092991585831,1.3679393393
1494497507652892549,-0.0326391538326,0.0506038968265,2.14285283428,-1.50755194412,0.0149161954011,-18.4788108386,2.52142153626,-0.0961395567192,1.38832656781
1494497507701645536,-0.0439471018296,0.0506230774888,2.10157525639,-1.71292348762,0.0148735149168,-18.5390359244,2.86491101584,-0.0958644676145,1.40262985565
1494497507754577966,-0.0748156925144,0.0511587902794,2.0184329042,-1.98391834785,0.0150242188407,-18.480827677,3.31815727343,-0.0968358016615,1.38880556124
1494497507801863448,-0.0866727075142,0.0511652221636,1.97602408913,-2.19828120002,0.0150476955198,-18.4043410901,3.67668496074,-0.0969871162196,1.3706402128
1494497507851772099,-0.0613552356005,0.055223106714,1.85671130664,-1.73063675323,0.0155394777659,-18.3692947979,2.89453693323,-0.100156807007,1.36231681737
1494497507903979297,-0.0405585549991,0.0552393442834,1.79375415985,-1.3522669158,0.0152770330301,-18.3042927123,2.2617031125,-0.0984652683885,1.34687900557
1494497507953851840,-0.00949465058309,0.0617570449121,1.79942038081,-0.965938514582,0.0159429889933,-18.1349917303,1.61555837785,-0.102757563399,1.3066705004
1494497508002151418,0.00756398663665,0.0617769297115,1.80981060477,-0.656430405523,0.0154374767785,-17.9802504039,1.09789766648,-0.0994993786578,1.2699198723
1494497508054040209,0.0443332221713,0.054617914609,1.82449375947,-0.220331759909,0.0141368129361,-17.9973483537,0.368510847485,-0.0911161923369,1.2739805871
1494497508103595184,0.0635690562452,0.054567619242,1.83168813432,0.128534787462,0.0143063916058,-18.0171503908,-0.214977920017,-0.0922091800388,1.278683515
1494497508155321175,0.0593041725723,0.0478643181938,1.88222697077,-0.0200822996238,0.0133625230477,-17.9024207655,0.0335881910845,-0.0861256512073,1.25143555293
1494497508201910409,0.0526496143045,0.0478309220126,1.91450326394,-0.141471407679,0.0137069681862,-17.8103364601,0.236614768385,-0.0883457081348,1.22956579041
1494497508256969995,0.0387808416425,0.0540395504241,1.90069234632,-0.20194271711,0.0148246138438,-17.8313496488,0.33775467439,-0.0955492848646,1.23455636339
1494497508301783794,0.0362187964293,0.0540826514763,1.89231964202,-0.247665805876,0.014670534235,-17.8469689552,0.414227781117,-0.0945561934704,1.23826590457
1494497508351466509,0.0195589046673,0.0505943501399,1.85518069152,-0.6154835876,0.0141812150914,-17.7439819815,1.02941300235,-0.091402378151,1.21380678911
1494497508402458538,0.00316257855143,0.0505770640547,1.83956943944,-0.914067743466,0.0143617173105,-17.6387458583,1.52880310557,-0.0925657715545,1.18881350699
1494497508454967939,0.000347889359844,0.0507274150626,1.74991363316,-1.14798301573,0.0145970847325,-17.70118245,1.92003274607,-0.094082788395,1.20364202122
1494497508504666787,-0.010172818106,0.0507388720719,1.69876288337,-1.34022173736,0.0147344978281,-17.7342879657,2.24155722469,-0.0949684588856,1.21150448772
1494497508553569583,-0.0581778106517,0.0551774918375,1.61220389264,-2.00394434543,0.0155096972889,-17.727157427,3.35165129782,-0.0999648624944,1.20981100492
1494497508603841619,-0.0875493947332,0.055207114573,1.56573786137,-2.53730966715,0.0153834048787,-17.6968887894,4.24371927207,-0.099150868308,1.20262228895
1494497508655218054,-0.134232708347,0.0598229463072,1.34596074373,-2.90401127281,0.0157909531384,-17.8247314373,4.85703765854,-0.101777644639,1.23298455685
1494497508702003822,-0.150218267964,0.0598338252102,1.22166398976,-3.19259450637,0.0153895284882,-17.882610773,5.33970094783,-0.0991903368917,1.24673073566
1494497508754019655,-0.125970597306,0.0552333485758,1.02046493236,-2.72616190764,0.0144242058286,-17.8492543907,4.55957976908,-0.0929685296488,1.23880868903
1494497508802072902,-0.105215754545,0.0551945543092,0.913184993419,-2.34846888919,0.0144454313886,-17.7634049919,3.92787794646,-0.0931053350387,1.21841969922
1494497508854604163,-0.024587601499,0.0504308315417,0.90530239698,-1.33068795467,0.0139195001149,-17.7369299451,2.22561171442,-0.0897155430603,1.21213195036
1494497508902038617,0.0203678437457,0.0504143387531,0.902188797091,-0.514924030507,0.0142624185899,-17.710332256,0.861224414271,-0.0919257601626,1.20581507432
1494497508952408221,0.0333048735564,0.0505916836952,1.10224979771,-0.354056877048,0.0146035775001,-17.5045335227,0.592169734735,-0.0941246363183,1.15693845623
1494497509002016065,0.0404080661708,0.0506083738141,1.219266757,-0.225178305383,0.0148087118089,-17.3692931554,0.376616826309,-0.0954467912637,1.12481925087
1494497509056867105,0.0402400886713,0.0557521950958,1.28295057805,-0.0108958534537,0.0155107377345,-17.346747201,0.0182236105769,-0.0999715684925,1.11946465036
1494497509101552187,0.0499107474609,0.0557767091831,1.31833991098,0.166038578501,0.0152313438351,-17.3433601342,-0.277704028253,-0.0981707871992,1.11866023156
1494497509153582965,0.0611573639874,0.0514382909399,1.34893223639,0.135757830545,0.0142321970858,-17.1785626602,-0.227058655582,-0.0917309730918,1.0795212968
1494497509200652219,0.0596560605508,0.0513972667068,1.37259707217,0.107360843062,0.0141920349701,-17.0347995726,-0.179563923421,-0.0914721156626,1.04537796941
1494497509251344908,0.0333635822507,0.0498543536773,1.37608612451,-0.714703775006,0.0138967326224,-16.9330420491,1.19536145827,-0.0895687994315,1.02121084492
1494497509301766753,-0.00341319323214,0.0498427649931,1.38237618416,-1.3853418042,0.013923127934,-16.8400583562,2.31702176089,-0.089738925492,0.999127480385
1494497509354395233,-0.0891920667623,0.0509020975852,1.21771199099,-2.56618444828,0.0143188077554,-16.8096208169,4.29201312706,-0.0922892060165,0.991898650749
1494497509407747618,-0.141443192691,0.0509196989926,0.986255193986,-3.51499318514,0.014431414496,-16.8220721919,5.87892148684,-0.0930149917704,0.994855817153
1494497509456216212,-0.168183219981,0.0523451640085,0.725861945091,-3.51302476571,0.0147615003933,-17.0272811168,5.87562925193,-0.0951424988858,1.04359235739
1494497509501782970,-0.167773413518,0.052358733156,0.576268221501,-3.50331329243,0.0147759149202,-17.1454676733,5.85938654933,-0.0952354050316,1.07166133086
1494497509552052282,-0.105853759107,0.0521753770717,0.428393942518,-2.53786227784,0.0148534619025,-17.3541491114,4.24464352845,-0.0957352196492,1.12122258317
1494497509601367002,-0.0630349148451,0.0521796309024,0.339452824351,-1.75963736463,0.0149329229434,-17.5063310558,2.94304124279,-0.096247370975,1.15736536526
1494497509652599285,0.0222311949918,0.0445704076715,0.362943504639,-0.672286715857,0.0139537781128,-17.7161865668,1.1244177758,-0.0899364755054,1.2072054566
1494497509701520451,0.0702700221713,0.0445371114972,0.366553632673,0.199502296218,0.0144073043374,-17.9163446952,-0.333673004223,-0.0928595942377,1.25474244692
1494497509753222905,0.0631830226016,0.0512577509111,0.591203972493,0.112728224619,0.0155417737718,-17.7906065406,-0.188541014727,-0.100171605485,1.22487999024
1494497509801544693,0.0593527610493,0.0513006397818,0.718043020048,0.0432420929729,0.0153239336309,-17.7360034972,-0.0723235739372,-0.0987675574672,1.21191192162
1494497509854414614,0.0562634548099,0.0512896614813,0.788947740754,-0.0129582597443,0.0151700304404,-17.7203044235,0.0216730410644,-0.0977756031444,1.20818343593
1494497509903403106,0.033163875492,0.0583611378934,0.764092534525,-0.386577900559,0.0159523923968,-17.7235988168,0.646562029065,-0.102818171283,1.20896584503
1494497509953203992,0.013748640896,0.050797931891,0.655423421925,-0.724629324829,0.0141947201856,-17.770357722,1.2119622097,-0.091489422718,1.220070953
1494497510001775602,-0.00127152151844,0.0507256215873,0.594676896105,-0.997809001043,0.0141139652188,-17.7837874272,1.66886263131,-0.0909689316347,1.22326047006
1494497510052769656,-0.0138380411765,0.0469667368318,0.439108770692,-1.15628159231,0.0136925193242,-17.9132602431,1.9339123406,-0.0882525806882,1.25400989826
1494497510101701717,-0.0208376363397,0.0469534004056,0.349438660274,-1.28329557394,0.0139587321778,-17.9902146401,2.14634667159,-0.0899684060077,1.27228635027
1494497510153647010,-0.0277155526365,0.048070433516,0.23051630988,-1.3058912596,0.0144202204285,-18.0035267734,2.18413856902,-0.092942842495,1.27544794434
1494497510201507565,-0.0286525299323,0.0480912060701,0.16567691497,-1.3224633198,0.0145689485203,-17.9832740718,2.21185578943,-0.0939014416843,1.2706379849
1494497510252161353,0.00647965437635,0.0519387545488,0.0687951063871,-0.927105769963,0.0152154128588,-18.1365965536,1.55060955869,-0.0980681070616,1.30705164139
1494497510301364327,0.0238968600245,0.0519631575195,0.00980551329446,-0.611374685471,0.0150886560211,-18.2516269298,1.02254075203,-0.0972511194951,1.33437103094
1494497510356002560,0.00822876062894,0.0483946557252,-0.0177045365693,-0.906041433025,0.0143668070802,-18.2416115084,1.51537888355,-0.0925985767164,1.33199239663
1494497510400833261,-0.00487882190903,0.0483659101852,-0.0321368716839,-1.14454157331,0.014401521271,-18.2248378224,1.91427684023,-0.0928223205614,1.32800869358
1494497510456108517,-0.0212608367692,0.0482296459163,-0.128594342762,-1.25420504055,0.0143537619077,-18.2738618637,2.09769196508,-0.0925144964886,1.33965176496
1494497510500927205,-0.0260123130659,0.0482275386709,-0.182839999048,-1.33977471245,0.0143414032118,-18.292724246,2.24080956341,-0.0924348408185,1.34413152749
1494497510554365495,-0.0321132268047,0.0509338533776,-0.255764891477,-1.37835320316,0.0147160650809,-18.204932779,2.305333136,-0.0948496540499,1.32328130198
1494497510601845206,-0.0337806917344,0.050947016184,-0.291371872264,-1.40835355954,0.014572662773,-18.1039320649,2.35550954614,-0.0939253812076,1.29929391757
1494497510652802244,-0.0328910021484,0.0369064806087,-0.352083705594,-1.43642156208,0.0126112452835,-18.1014033377,2.40245404206,-0.0812834304344,1.29869335198
1494497510701471562,-0.0341681389002,0.0368373088998,-0.384781662278,-1.45985989876,0.013343267867,-18.0824557257,2.44165529619,-0.08600154553,1.29419334764
1494497510752404785,-0.0275986699633,0.0444008905686,-0.46043371947,-1.41840673191,0.0151040755144,-18.0392025067,2.37232374975,-0.097350502964,1.28392083026
1494497510801819448,-0.025807121293,0.0444733568436,-0.499442273845,-1.38617511643,0.0151868998907,-17.9785714434,2.3184154982,-0.0978843320416,1.26952112393
1494497510852936074,-0.0174141540581,0.0479642751903,-0.54022702372,-1.29541849683,0.0157155551832,-18.0319134393,2.1666225891,-0.101291681175,1.28218969732
1494497510905457069,-0.0134198728232,0.0479835223511,-0.564575202915,-1.22303983826,0.0155613227734,-18.0699962727,2.04556731854,-0.10029760493,1.29123426274
1494497510953497116,-0.0147623734708,0.052690123083,-0.611387309959,-1.34028412053,0.0160340563182,-18.0840131212,2.24166156224,-0.103344520864,1.29456322468
1494497511000731545,-0.0200364393611,0.0527040739583,-0.637290330333,-1.43665970882,0.0156634765195,-18.0841432396,2.40285234895,-0.100956017857,1.29459412742
1494497511051651218,-0.018245503224,0.0518096124517,-0.694092908758,-1.32049492494,0.0150678154793,-18.1971568905,2.20856359561,-0.0971167956678,1.32143455041
1494497511100604021,-0.0130255284545,0.0517816746108,-0.729679720864,-1.22514604358,0.0147955003821,-18.2859430665,2.0490900041,-0.0953616394748,1.34252101651
1494497511155182680,-0.0303157375204,0.0514526264065,-0.790091991271,-1.35570460818,0.0145757745269,-18.2432206892,2.2674527463,-0.0939454374372,1.33237457254
1494497511201730987,-0.0359991198473,0.0514423189223,-0.820888259083,-1.45824789394,0.0144751917849,-18.1872498946,2.4389591744,-0.0932971501251,1.31908166687
1494497511251092362,-0.0219068988481,0.0439797805356,-0.870876047645,-1.30304211446,0.013392080445,-18.2124646497,2.17937329646,-0.0863161579014,1.32507010001
1494497511301300493,-0.0150730201961,0.0439409852221,-0.898979849899,-1.17918618236,0.0137536270183,-18.2220632295,1.97222088902,-0.0886464389391,1.3273497356
1494497511352266471,-0.0223566425194,0.0471131344374,-0.982588185499,-1.43614787265,0.0147012664063,-18.2088509575,2.40199628906,-0.0947542719515,1.3242118583
1494497511401860138,-0.033863582406,0.0471539828077,-1.02719649174,-1.64605923455,0.0148777289084,-18.1737753267,2.75307873811,-0.0958916281116,1.31588149504
1494497511453079570,-0.0639385235429,0.0514813196946,-1.06543587796,-1.97411145471,0.0155479414245,-18.2025234916,3.30175497853,-0.10021135794,1.32270910301
1494497511503058062,-0.0783795517397,0.0515059229252,-1.08734403365,-2.2358134305,0.0153668460822,-18.2185988067,3.73945863472,-0.0990441416724,1.32652694497
1494497511554165749,-0.0914402968262,0.0518550643741,-1.08658956333,-2.29136852901,0.0152446386955,-18.2256288986,3.83237604454,-0.0982564767436,1.32819657195
1494497511600860374,-0.0937902172236,0.0518482368936,-1.08648616586,-2.33327779569,0.0151105796683,-18.2323252491,3.90247043033,-0.0973924242755,1.32978693627
1494497511652191063,-0.0445645088625,0.0516420293325,-1.1131476038,-1.6631599709,0.0149846065303,-18.3548666625,2.7816801837,-0.0965804878989,1.35889017596
1494497511701873219,-0.0149190196602,0.0516361559667,-1.13285918537,-1.12488475628,0.0149295178532,-18.4606963094,1.88140028034,-0.0962254241011,1.38402441828
1494497511755202626,0.00200994776875,0.0480979653729,-1.25457739484,-0.879449740097,0.0144442297439,-18.5097032355,1.47090355552,-0.0930975900616,1.39566342486
1494497511802711391,0.0128810089103,0.0480809834274,-1.32247268895,-0.68197019976,0.0146347868237,-18.5216374665,1.1406136654,-0.0943257901953,1.398497771
1494497511855953776,0.0111628274562,0.0514490823053,-1.43522713768,-0.717690804333,0.0152100350442,-18.5255220832,1.20035734588,-0.09803344536,1.39942035651
1494497511901225036,0.00957170259787,0.0514709113429,-1.49632544967,-0.746657469696,0.015105402945,-18.4982540643,1.24880487975,-0.097359058671,1.392944279
1494497511951936722,0.00945058852227,0.0511364659708,-1.54849275634,-0.680292574065,0.0149692602385,-18.4166438529,1.1378077909,-0.0964815762363,1.37356208425
1494497512001624745,0.0124464940366,0.0511303480055,-1.5731503288,-0.625473748672,0.014926105279,-18.3270295327,1.04612181784,-0.09620342899,1.35227893622
1494497512057814921,0.0444509335972,0.0509182137321,-1.64087982268,-0.335260760495,0.0149015475509,-18.4185774783,0.560732719739,-0.0960451467315,1.37402131481
1494497512102670834,0.057161455276,0.0509174224296,-1.68144215446,-0.105377427948,0.0149160474384,-18.4845573393,0.17624660782,-0.0961386030535,1.38969134551
1494497512154331594,0.0418604789084,0.055139572934,-1.82732559425,-0.351955178309,0.0153509298384,-18.5546481964,0.588654586561,-0.0989415564902,1.40633772616
1494497512201479698,0.0309183139058,0.0551526281155,-1.90919191044,-0.550870340872,0.0150258167746,-18.5794336848,0.921345593814,-0.0968461008463,1.41222420968
1494497512252079778,0.00659185506082,0.0555212360183,-1.92219729232,-0.881861648178,0.0147908932355,-18.5972595838,1.47493753724,-0.0953319449706,1.41645781035
1494497512300518689,-0.00805079296977,0.0555087336859,-1.92999673769,-1.1477281819,0.0145776007638,-18.6101569399,1.91960652957,-0.093957208107,1.419520896
1494497512351422509,-0.0294247441926,0.0549804910055,-1.87130300624,-1.34325807439,0.0144558183683,-18.4937396778,2.24663558078,-0.09317228238,1.39187212497
1494497512404853535,-0.0379906774167,0.0549754895752,-1.79874567802,-1.49819822348,0.0144508421988,-18.381014266,2.50577718466,-0.0931402094069,1.36510015796
1494497512451623170,-0.0347773399173,0.047765827932,-1.76764430232,-1.36556598493,0.0134542614095,-18.3563599847,2.28394616651,-0.0867169337164,1.35924483575
1494497512501502627,-0.028831411446,0.0477308382046,-1.74977058605,-1.2570538781,0.0138373198021,-18.3421107315,2.1024567232,-0.0891858651744,1.35586067835
1494497512552560796,-0.037513943086,0.0509340467159,-1.76754738006,-1.35667957029,0.0146237223562,-18.1767893047,2.26908339688,-0.0942544762325,1.3165973063
1494497512601573942,-0.0419049299511,0.0509667707834,-1.76999753269,-1.43629180915,0.0146863722889,-18.0193067937,2.40223702676,-0.0946582746943,1.2791956546
1494497512651738143,-0.0359188980778,0.044316871235,-1.77977893014,-1.32341488426,0.0138806894234,-17.9738005982,2.21344730681,-0.0894653959833,1.26838806166
1494497512701673194,-0.0308976331101,0.0442902732655,-1.7830948256,-1.23204869295,0.0143109294436,-17.9291145329,2.06063487248,-0.0922384278266,1.25777524732
1494497512751688143,-0.00912345819729,0.0512956272372,-1.83945147803,-1.01868516648,0.0157676285902,-17.8992533879,1.70377858451,-0.101627310612,1.2506833097
1494497512801186337,0.000242342430333,0.0513540390722,-1.86861288183,-0.849144930014,0.0157263351964,-17.8562653435,1.42021793829,-0.10136116174,1.24047377053
1494497512852058798,0.0286417600441,0.0589916838011,-1.99799115049,-0.526900542173,0.0168642370885,-18.0267254059,0.881255455033,-0.108695296254,1.28095755405
1494497512901930712,0.042840846049,0.0590328579579,-2.07528296865,-0.269486050395,0.0165141117178,-18.1486841697,0.4507227322,-0.106438628449,1.30992241609
1494497512952492310,0.0139050464684,0.0600169870522,-2.22595903301,-0.703954320988,0.0160790012633,-18.2256085964,1.17738270473,-0.103634205129,1.32819175023
1494497513002095894,-0.00535125660128,0.059993211003,-2.31071098006,-1.05384399719,0.0156397082421,-18.2553911061,1.76258268296,-0.100802823856,1.33526501219
1494497513051466209,-0.0261487875632,0.058762896787,-2.29695835476,-1.28921470883,0.0147193930202,-18.1198260459,2.15624658532,-0.0948711036623,1.30306869317
1494497513101817863,-0.0365192984995,0.0587194199724,-2.28365868959,-1.47721655831,0.0142763951511,-17.9984411251,2.4706847803,-0.0920158434822,1.27424011721
1494497513152429257,-0.0326155396851,0.0536895491631,-2.23846162282,-1.43776899084,0.0133250001715,-17.7089556243,2.40470765323,-0.0858838045039,1.20548812816
1494497513201768492,-0.0308824863079,0.0536523344333,-2.20150747631,-1.40638678402,0.0134186956222,-17.4540820272,2.35222006073,-0.0864877010643,1.1449563685
1494497513252041645,-0.0301543330463,0.0633531662152,-2.2215834964,-1.3901497677,0.015274256959,-17.3172345171,2.32506321031,-0.0984473757393,1.11245547126
1494497513303338601,-0.0294304431488,0.0634259729501,-2.22650861721,-1.37696681057,0.015107550063,-17.185408816,2.30301435676,-0.0973728975197,1.08114723946
1494497513355460103,-0.0278925460277,0.0611576359139,-2.25086889437,-1.11556998709,0.0147012172468,-16.959792973,1.86582107609,-0.0947539551029,1.0275641138
1494497513401732119,-0.0161165162826,0.0611419889081,-2.25540752957,-0.900259960623,0.0147588669107,-16.7455267688,1.50570921407,-0.0951255252641,0.976676495314
1494497513452095716,0.0444375250742,0.0577552244207,-2.32496088559,-0.147344258043,0.0142691155298,-16.7230353388,0.246437269987,-0.0919689240403,0.971334844186
1494497513501781434,0.0776829526189,0.0577377078632,-2.36157251754,0.455852215765,0.0144344198485,-16.6832395702,-0.762425201111,-0.0930343622097,0.961883461519
1494497513558174708,0.0919456970986,0.0580193746138,-2.53337660424,0.206508405806,0.0145199513826,-16.807274032,-0.345390912631,-0.0935856397679,0.991341295969
1494497513601951155,0.080523839459,0.058023071036,-2.63158488801,-0.00363058684194,0.0145365600679,-16.8747651498,0.00607225501465,-0.0936926879522,1.00737024587
1494497513651449768,0.0711792630557,0.0580238937195,-2.68757600793,-0.17363977179,0.0145472714138,-16.9101964989,0.290417230298,-0.0937617259359,1.01578509125
1494497513705788871,-0.0161822954266,0.0663170738433,-2.74484920743,-1.51568761506,0.0154997498347,-17.0738370026,2.53502866667,-0.0999007480325,1.05464924883
1494497513752084423,-0.112519838069,0.0559378413982,-2.69503950878,-2.5812602805,0.0132300554155,-17.0990135101,4.31722786556,-0.0852718557792,1.06062859826
1494497513801639747,-0.159443118127,0.0558457271684,-2.66921316497,-3.43172405643,0.0132157331455,-17.1358853771,5.73965160944,-0.0851795442582,1.06938556256
1494497513855902024,-0.143617585215,0.0438100622857,-2.43781693427,-2.85576393957,0.0118019660396,-17.0801179696,4.77634268444,-0.0760673719374,1.05614096075
1494497513903544116,-0.117819649336,0.0437641441667,-2.31036128184,-2.38511230686,0.0126107703391,-17.0919550416,3.98916505688,-0.0812803692692,1.05895223192
1494497513954890520,-0.0453905319456,0.0499331982134,-2.35999325278,-1.3450027508,0.0145470058927,-17.1165563584,2.24955359941,-0.0937600145685,1.0647949752
1494497514000721418,0.000670825297324,0.0500173029128,-2.38787822545,-0.508327713331,0.0149534078536,-17.1256860027,0.850191894793,-0.0963794026449,1.06696323994
1494497514052269523,0.0699911736948,0.0574515212004,-2.62650273016,0.450801970097,0.016309455971,-17.2806836115,-0.753978528185,-0.105119557985,1.10377473439
1494497514100728758,0.112435954551,0.0575040191895,-2.76215964304,1.22157073133,0.0161370071734,-17.3584739098,-2.04311019734,-0.104008071409,1.12224971058
1494497514152337346,0.148558784359,0.0616811370802,-2.95540792683,1.30438584707,0.0163285365685,-17.4656182958,-2.18162072572,-0.105242538419,1.14769619972
1494497514201951057,0.15186186542,0.0616821194011,-3.06447311039,1.36182309151,0.0158451392919,-17.5116491849,-2.27768607569,-0.10212689139,1.15862840591
1494497514251444432,0.112521869339,0.0588751238573,-3.18438435722,0.675676917104,0.0148541300012,-17.702689052,-1.13008797938,-0.0957395257547,1.20399983494
1494497514300860004,0.0820344958234,0.0588313562445,-3.25745120508,0.121181194198,0.0145946778426,-17.8462368176,-0.202678835732,-0.0940672752344,1.23809202396
1494497514354752402,0.0116518843882,0.0522406422763,-3.27982376546,-0.86871565747,0.0133165933372,-17.8656151421,1.45295051104,-0.0858296198212,1.24269432131
1494497514404852488,-0.0321683909323,0.0521903066642,-3.25032362377,-1.66456053335,0.0134180483488,-17.8521220718,2.78402266242,-0.0864835291842,1.23948975519
1494497514452040402,-0.0707195313299,0.0410151750135,-3.22983327918,-2.15714249576,0.0120498149681,-17.8850067405,3.60787936151,-0.0776648360012,1.24729977118
1494497514502474329,-0.0924825600337,0.0409697630356,-3.22018415903,-2.55209542365,0.0127631514125,-17.9209715195,4.26844885106,-0.0822625130701,1.25584130462
1494497514555621730,-0.115215323175,0.0438192471186,-3.16477293998,-2.71207841034,0.0140039295949,-17.8254037441,4.53602473768,-0.0902597175339,1.23314422781
1494497514600926583,-0.122161032537,0.0438754135627,-3.13069314697,-2.83726474611,0.0144263867935,-17.7523421643,4.74540228138,-0.092982586651,1.21579230891
1494497514655212746,-0.0930202534309,0.0479801397679,-3.13664977604,-2.30200766432,0.0154753714619,-17.7441460224,3.85017028707,-0.0997436217753,1.21384574835
1494497514701659435,-0.0692187171854,0.0480241361665,-3.1395138388,-1.86898188546,0.0155836081256,-17.7349497024,3.12592292109,-0.100441241013,1.21166164832
1494497514755065109,-0.0228722111303,0.0588129371285,-3.23760795621,-1.27360162557,0.0170229066833,-17.7376671811,2.13013327988,-0.109717971547,1.21230704184
1494497514802098115,0.00343560522843,0.0588626964289,-3.29073360906,-0.796149276979,0.0164144347333,-17.7133333622,1.33158127047,-0.105796179027,1.20652782856
1494497514854147471,0.0442228596847,0.0587763172652,-3.42333180252,-0.296802373438,0.0157793636712,-17.8790378597,0.49641002376,-0.101702946889,1.24588217883
1494497514901693462,0.0662642869314,0.0587447470237,-3.50215775312,0.103058571249,0.0153617227601,-17.9957253773,-0.172368257065,-0.0990111202548,1.27359513478
1494497514951887414,0.0636672765363,0.0510672007713,-3.57876559559,-0.0581594573023,0.0139064328995,-18.0594897759,0.0972732705835,-0.0896313207592,1.28873899941
